header:
  stamp:
    sec: 1771885249
    nanosec: 22218927
  frame_id: ''
pose:
  position:
    x: 0.12233036206235302
    y: 0.02728010318365245
    z: 0.0
  orientation:
    x: 0.0
    y: 0.0
    z: -4.602671942155667
    w: 1.0
---
header:
  stamp:
    sec: 1771885249
    nanosec: 24157474
  frame_id: ''
pose:
  position:
    x: 0.12224886825833849
    y: 0.027269591173207118
    z: 0.0
  orientation:
    x: 0.0
    y: 0.0
    z: -4.604003980373974
    w: 1.0
---
header:
  stamp:
    sec: 1771885249
    nanosec: 26205128
  frame_id: ''
pose:
  position:
    x: 0.12216881280164281
    y: 0.02725937365008344
    z: 0.0
  orientation:
    x: 0.0
    y: 0.0
    z: -4.605315106390175
    w: 1.0
---
header:
  stamp:
    sec: 1771885249
    nanosec: 39378334
  frame_id: ''
pose:
  position:
    x: 0.12182482580743463
    y: 0.02721674345791065
    z: 0.0
  orientation:
    x: 0.0
    y: 0.0
    z: -4.610964349888267
    w: 1.0
---
header:
  stamp:
    sec: 1771885249
    nanosec: 42279613
  frame_id: ''
pose:
  position:
    x: 0.12171559586925755
    y: 0.02720365206950307
    z: 0.0
  orientation:
    x: 0.0
    y: 0.0
    z: -4.612759331124465
    w: 1.0
---
header:
  stamp:
    sec: 1771885249
    nanosec: 43287089
  frame_id: ''
pose:
  position:
    x: 0.12167975137338896
    y: 0.027199403886339783
    z: 0.0
  orientation:
    x: 0.0
    y: 0.0
    z: -4.613348189553937
    w: 1.0
---
header:
  stamp:
    sec: 1771885249
    nanosec: 44030467
  frame_id: ''
pose:
  position:
    x: 0.12164418409595985
    y: 0.02719521207539748
    z: 0.0
  orientation:
    x: 0.0
    y: 0.0
    z: -4.613932374973239
    w: 1.0
---
header:
  stamp:
    sec: 1771885249
    nanosec: 53225718
  frame_id: ''
pose:
  position:
    x: 0.12150463144685503
    y: 0.02717899273471455
    z: 0.0
  orientation:
    x: 0.0
    y: 0.0
    z: -4.616223117485522
    w: 1.0
---
header:
  stamp:
    sec: 1771885249
    nanosec: 59025622
  frame_id: ''
pose:
  position:
    x: 0.12130320149076114
    y: 0.02715622817729541
    z: 0.0
  orientation:
    x: 0.0
    y: 0.0
    z: -4.619525200566895
    w: 1.0
---
header:
  stamp:
    sec: 1771885249
    nanosec: 60986824
  frame_id: ''
pose:
  position:
    x: 0.12123810391371004
    y: 0.027149035955989775
    z: 0.0
  orientation:
    x: 0.0
    y: 0.0
    z: -4.620591286060531
    w: 1.0
---
header:
  stamp:
    sec: 1771885249
    nanosec: 64221685
  frame_id: ''
pose:
  position:
    x: 0.12114233028117175
    y: 0.0271386018791348
    z: 0.0
  orientation:
    x: 0.0
    y: 0.0
    z: -4.622158916751208
    w: 1.0
---
header:
  stamp:
    sec: 1771885249
    nanosec: 68048726
  frame_id: ''
pose:
  position:
    x: 0.12104876682121933
    y: 0.027128578799399245
    z: 0.0
  orientation:
    x: 0.0
    y: 0.0
    z: -4.623689555141591
    w: 1.0
---
header:
  stamp:
    sec: 1771885249
    nanosec: 73126865
  frame_id: ''
pose:
  position:
    x: 0.12089762638614573
    y: 0.02711274526996976
    z: 0.0
  orientation:
    x: 0.0
    y: 0.0
    z: -4.626160805293322
    w: 1.0
---
header:
  stamp:
    sec: 1771885249
    nanosec: 76094121
  frame_id: ''
pose:
  position:
    x: 0.1208388132885621
    y: 0.02710670401654256
    z: 0.0
  orientation:
    x: 0.0
    y: 0.0
    z: -4.627122109814197
    w: 1.0
---
header:
  stamp:
    sec: 1771885249
    nanosec: 77381904
  frame_id: ''
pose:
  position:
    x: 0.1208097524562489
    y: 0.02710374383351579
    z: 0.0
  orientation:
    x: 0.0
    y: 0.0
    z: -4.627597058119876
    w: 1.0
---
header:
  stamp:
    sec: 1771885249
    nanosec: 80171325
  frame_id: ''
pose:
  position:
    x: 0.12075231412259592
    y: 0.027097941709669886
    z: 0.0
  orientation:
    x: 0.0
    y: 0.0
    z: -4.628535697993819
    w: 1.0
---
header:
  stamp:
    sec: 1771885249
    nanosec: 93078917
  frame_id: ''
pose:
  position:
    x: 0.12053143066688593
    y: 0.027076234478275292
    z: 0.0
  orientation:
    x: 0.0
    y: 0.0
    z: -4.6321444783790495
    w: 1.0
---
header:
  stamp:
    sec: 1771885249
    nanosec: 98021879
  frame_id: ''
pose:
  position:
    x: 0.12040031648459384
    y: 0.02706380714886271
    z: 0.0
  orientation:
    x: 0.0
    y: 0.0
    z: -4.634286136815131
    w: 1.0
---
header:
  stamp:
    sec: 1771885249
    nanosec: 100021283
  frame_id: ''
pose:
  position:
    x: 0.12034930763029456
    y: 0.02705906524580503
    z: 0.0
  orientation:
    x: 0.0
    y: 0.0
    z: -4.6351192426866055
    w: 1.0
---
header:
  stamp:
    sec: 1771885249
    nanosec: 105007471
  frame_id: ''
pose:
  position:
    x: 0.12022526514407095
    y: 0.027047752143706964
    z: 0.0
  orientation:
    x: 0.0
    y: 0.0
    z: -4.637144955964118
    w: 1.0
---
header:
  stamp:
    sec: 1771885249
    nanosec: 107005549
  frame_id: ''
pose:
  position:
    x: 0.12017700709438513
    y: 0.02704343470724129
    z: 0.0
  orientation:
    x: 0.0
    y: 0.0
    z: -4.6379329581436135
    w: 1.0
---
header:
  stamp:
    sec: 1771885249
    nanosec: 108812710
  frame_id: ''
pose:
  position:
    x: 0.12015316312498853
    y: 0.027041318887406105
    z: 0.0
  orientation:
    x: 0.0
    y: 0.0
    z: -4.638322284630833
    w: 1.0
---
header:
  stamp:
    sec: 1771885249
    nanosec: 123841043
  frame_id: ''
pose:
  position:
    x: 0.12003673403135864
    y: 0.027031153174084208
    z: 0.0
  orientation:
    x: 0.0
    y: 0.0
    z: -4.64022314914137
    w: 1.0
---
header:
  stamp:
    sec: 1771885249
    nanosec: 129003265
  frame_id: ''
pose:
  position:
    x: 0.11994685228710987
    y: 0.027023494223033528
    z: 0.0
  orientation:
    x: 0.0
    y: 0.0
    z: -4.641690352169701
    w: 1.0
---
header:
  stamp:
    sec: 1771885249
    nanosec: 133232045
  frame_id: ''
pose:
  position:
    x: 0.11985977178274411
    y: 0.027016231569521616
    z: 0.0
  orientation:
    x: 0.0
    y: 0.0
    z: -4.643111620639754
    w: 1.0
---
header:
  stamp:
    sec: 1771885249
    nanosec: 135155425
  frame_id: ''
pose:
  position:
    x: 0.11981725466678399
    y: 0.027012742096484514
    z: 0.0
  orientation:
    x: 0.0
    y: 0.0
    z: -4.643805480511288
    w: 1.0
---
header:
  stamp:
    sec: 1771885249
    nanosec: 138411235
  frame_id: ''
pose:
  position:
    x: 0.11975472800932467
    y: 0.02700767794132708
    z: 0.0
  orientation:
    x: 0.0
    y: 0.0
    z: -4.6448257969623405
    w: 1.0
---
header:
  stamp:
    sec: 1771885249
    nanosec: 144453718
  frame_id: ''
pose:
  position:
    x: 0.11969366906006548
    y: 0.027002810424235385
    z: 0.0
  orientation:
    x: 0.0
    y: 0.0
    z: -4.6458220605653295
    w: 1.0
---
header:
  stamp:
    sec: 1771885249
    nanosec: 145372845
  frame_id: ''
pose:
  position:
    x: 0.11967363629478761
    y: 0.0270012302166344
    z: 0.0
  orientation:
    x: 0.0
    y: 0.0
    z: -4.646148901756698
    w: 1.0
---
header:
  stamp:
    sec: 1771885249
    nanosec: 159004002
  frame_id: ''
pose:
  position:
    x: 0.11951896019419346
    y: 0.0269893089476254
    z: 0.0
  orientation:
    x: 0.0
    y: 0.0
    z: -4.648672138612787
    w: 1.0
---
header:
  stamp:
    sec: 1771885249
    nanosec: 166418066
  frame_id: ''
pose:
  position:
    x: 0.11942714930135107
    y: 0.026982467840850177
    z: 0.0
  orientation:
    x: 0.0
    y: 0.0
    z: -4.650169565617756
    w: 1.0
---
header:
  stamp:
    sec: 1771885249
    nanosec: 169011358
  frame_id: ''
pose:
  position:
    x: 0.11937378382170805
    y: 0.026978572125061547
    z: 0.0
  orientation:
    x: 0.0
    y: 0.0
    z: -4.651039857000757
    w: 1.0
---
header:
  stamp:
    sec: 1771885249
    nanosec: 171015787
  frame_id: ''
pose:
  position:
    x: 0.11933890532293791
    y: 0.026976058093221768
    z: 0.0
  orientation:
    x: 0.0
    y: 0.0
    z: -4.651608623526277
    w: 1.0
---
header:
  stamp:
    sec: 1771885249
    nanosec: 173044577
  frame_id: ''
pose:
  position:
    x: 0.11930457542547451
    y: 0.026973608431174998
    z: 0.0
  orientation:
    x: 0.0
    y: 0.0
    z: -4.652168416057452
    w: 1.0
---
header:
  stamp:
    sec: 1771885249
    nanosec: 176108998
  frame_id: ''
pose:
  position:
    x: 0.11928761351477794
    y: 0.026972407186882704
    z: 0.0
  orientation:
    x: 0.0
    y: 0.0
    z: -4.652444991413574
    w: 1.0
---
header:
  stamp:
    sec: 1771885249
    nanosec: 180735725
  frame_id: ''
pose:
  position:
    x: 0.11925409046652304
    y: 0.026970050794906157
    z: 0.0
  orientation:
    x: 0.0
    y: 0.0
    z: -4.6529915877569366
    w: 1.0
---
header:
  stamp:
    sec: 1771885249
    nanosec: 181787754
  frame_id: ''
pose:
  position:
    x: 0.11923752723220737
    y: 0.02696889522554834
    z: 0.0
  orientation:
    x: 0.0
    y: 0.0
    z: -4.653261643308948
    w: 1.0
---
header:
  stamp:
    sec: 1771885249
    nanosec: 189037728
  frame_id: ''
pose:
  position:
    x: 0.11922109480669986
    y: 0.026967754464437995
    z: 0.0
  orientation:
    x: 0.0
    y: 0.0
    z: -4.653529559929577
    w: 1.0
---
header:
  stamp:
    sec: 1771885249
    nanosec: 190034208
  frame_id: ''
pose:
  position:
    x: 0.11920479216169959
    y: 0.02696662830809256
    z: 0.0
  orientation:
    x: 0.0
    y: 0.0
    z: -4.653795354560673
    w: 1.0
---
header:
  stamp:
    sec: 1771885249
    nanosec: 211445525
  frame_id: ''
pose:
  position:
    x: 0.11903374232346331
    y: 0.026955149103072545
    z: 0.0
  orientation:
    x: 0.0
    y: 0.0
    z: -4.656583757285132
    w: 1.0
---
header:
  stamp:
    sec: 1771885249
    nanosec: 212018652
  frame_id: ''
pose:
  position:
    x: 0.11901891967255837
    y: 0.02695418333885248
    z: 0.0
  orientation:
    x: 0.0
    y: 0.0
    z: -4.656825361689707
    w: 1.0
---
header:
  stamp:
    sec: 1771885249
    nanosec: 213004515
  frame_id: ''
pose:
  position:
    x: 0.11900421413708442
    y: 0.02695322978155026
    z: 0.0
  orientation:
    x: 0.0
    y: 0.0
    z: -4.657065052512171
    w: 1.0
---
header:
  stamp:
    sec: 1771885249
    nanosec: 215015105
  frame_id: ''
pose:
  position:
    x: 0.11897515073149165
    y: 0.026951358623295233
    z: 0.0
  orientation:
    x: 0.0
    y: 0.0
    z: -4.657538753916688
    w: 1.0
---
header:
  stamp:
    sec: 1771885249
    nanosec: 227824490
  frame_id: ''
pose:
  position:
    x: 0.11893241117062338
    y: 0.02694863934661101
    z: 0.0
  orientation:
    x: 0.0
    y: 0.0
    z: -4.658235329188226
    w: 1.0
---
header:
  stamp:
    sec: 1771885249
    nanosec: 229190478
  frame_id: ''
pose:
  position:
    x: 0.11891838921488633
    y: 0.02694775561184789
    z: 0.0
  orientation:
    x: 0.0
    y: 0.0
    z: -4.658463852635736
    w: 1.0
---
header:
  stamp:
    sec: 1771885249
    nanosec: 231433599
  frame_id: ''
pose:
  position:
    x: 0.11890447806950807
    y: 0.02694688296564185
    z: 0.0
  orientation:
    x: 0.0
    y: 0.0
    z: -4.658690566108553
    w: 1.0
---
header:
  stamp:
    sec: 1771885249
    nanosec: 240459452
  frame_id: ''
pose:
  position:
    x: 0.1188499242374107
    y: 0.026943500281696692
    z: 0.0
  orientation:
    x: 0.0
    y: 0.0
    z: -4.65957960527221
    w: 1.0
---
header:
  stamp:
    sec: 1771885249
    nanosec: 242306238
  frame_id: ''
pose:
  position:
    x: 0.11883655418733607
    y: 0.026942680858166423
    z: 0.0
  orientation:
    x: 0.0
    y: 0.0
    z: -4.659797481651916
    w: 1.0
---
header:
  stamp:
    sec: 1771885249
    nanosec: 246217078
  frame_id: ''
pose:
  position:
    x: 0.11881013027888176
    y: 0.026941072517892108
    z: 0.0
  orientation:
    x: 0.0
    y: 0.0
    z: -4.660228071144602
    w: 1.0
---
header:
  stamp:
    sec: 1771885249
    nanosec: 265026288
  frame_id: ''
pose:
  position:
    x: 0.11870853053731226
    y: 0.02693502624530984
    z: 0.0
  orientation:
    x: 0.0
    y: 0.0
    z: -4.6618835548551925
    w: 1.0
---
header:
  stamp:
    sec: 1771885249
    nanosec: 269014006
  frame_id: ''
pose:
  position:
    x: 0.11866009922005112
    y: 0.02693222112177644
    z: 0.0
  orientation:
    x: 0.0
    y: 0.0
    z: -4.662672631927568
    w: 1.0
---
header:
  stamp:
    sec: 1771885249
    nanosec: 274146651
  frame_id: ''
pose:
  position:
    x: 0.11861318149737138
    y: 0.02692955116502155
    z: 0.0
  orientation:
    x: 0.0
    y: 0.0
    z: -4.663437005605044
    w: 1.0
---
header:
  stamp:
    sec: 1771885249
    nanosec: 277413173
  frame_id: ''
pose:
  position:
    x: 0.11859027543120622
    y: 0.026928264638659057
    z: 0.0
  orientation:
    x: 0.0
    y: 0.0
    z: -4.663810171312207
    w: 1.0
---
header:
  stamp:
    sec: 1771885249
    nanosec: 278199209
  frame_id: ''
pose:
  position:
    x: 0.11857895806197127
    y: 0.026927633112366123
    z: 0.0
  orientation:
    x: 0.0
    y: 0.0
    z: -4.663994540424639
    w: 1.0
---
header:
  stamp:
    sec: 1771885249
    nanosec: 290036382
  frame_id: ''
pose:
  position:
    x: 0.11851290866222142
    y: 0.026924001806786207
    z: 0.0
  orientation:
    x: 0.0
    y: 0.0
    z: -4.66507049141478
    w: 1.0
---
header:
  stamp:
    sec: 1771885249
    nanosec: 293022028
  frame_id: ''
pose:
  position:
    x: 0.11848104531390488
    y: 0.026922283205567072
    z: 0.0
  orientation:
    x: 0.0
    y: 0.0
    z: -4.665589519926904
    w: 1.0
---
header:
  stamp:
    sec: 1771885249
    nanosec: 294154727
  frame_id: ''
pose:
  position:
    x: 0.11847059175137208
    y: 0.026921724086147177
    z: 0.0
  orientation:
    x: 0.0
    y: 0.0
    z: -4.665759796136034
    w: 1.0
---
header:
  stamp:
    sec: 1771885249
    nanosec: 295042856
  frame_id: ''
pose:
  position:
    x: 0.11846022086517313
    y: 0.026921171689041457
    z: 0.0
  orientation:
    x: 0.0
    y: 0.0
    z: -4.665928723714378
    w: 1.0
---
header:
  stamp:
    sec: 1771885249
    nanosec: 306355910
  frame_id: ''
pose:
  position:
    x: 0.1184095839198869
    y: 0.02691850746719109
    z: 0.0
  orientation:
    x: 0.0
    y: 0.0
    z: -4.666753503055489
    w: 1.0
---
header:
  stamp:
    sec: 1771885249
    nanosec: 307885419
  frame_id: ''
pose:
  position:
    x: 0.118399695566925
    y: 0.026917993578507434
    z: 0.0
  orientation:
    x: 0.0
    y: 0.0
    z: -4.666914560226249
    w: 1.0
---
header:
  stamp:
    sec: 1771885249
    nanosec: 309177277
  frame_id: ''
pose:
  position:
    x: 0.11838988542892315
    y: 0.0269174858149407
    z: 0.0
  orientation:
    x: 0.0
    y: 0.0
    z: -4.667074341784424
    w: 1.0
---
header:
  stamp:
    sec: 1771885249
    nanosec: 310152807
  frame_id: ''
pose:
  position:
    x: 0.11838015288840212
    y: 0.02691698409591151
    z: 0.0
  orientation:
    x: 0.0
    y: 0.0
    z: -4.667232857833324
    w: 1.0
---
header:
  stamp:
    sec: 1771885249
    nanosec: 328003076
  frame_id: ''
pose:
  position:
    x: 0.11831414697509826
    y: 0.026913634774858676
    z: 0.0
  orientation:
    x: 0.0
    y: 0.0
    z: -4.6683078679472665
    w: 1.0
---
header:
  stamp:
    sec: 1771885249
    nanosec: 330006367
  frame_id: ''
pose:
  position:
    x: 0.11829595239763459
    y: 0.026912727881118134
    z: 0.0
  orientation:
    x: 0.0
    y: 0.0
    z: -4.6686041822869795
    w: 1.0
---
header:
  stamp:
    sec: 1771885249
    nanosec: 331028536
  frame_id: ''
pose:
  position:
    x: 0.11828696291923457
    y: 0.02691228241684263
    z: 0.0
  orientation:
    x: 0.0
    y: 0.0
    z: -4.6687505816294195
    w: 1.0
---
header:
  stamp:
    sec: 1771885249
    nanosec: 332063123
  frame_id: ''
pose:
  position:
    x: 0.11827804455803015
    y: 0.02691184218199121
    z: 0.0
  orientation:
    x: 0.0
    y: 0.0
    z: -4.668895821454327
    w: 1.0
---
header:
  stamp:
    sec: 1771885249
    nanosec: 341007548
  frame_id: ''
pose:
  position:
    x: 0.11822599670427354
    y: 0.026909306847454472
    z: 0.0
  orientation:
    x: 0.0
    y: 0.0
    z: -4.669743419766446
    w: 1.0
---
header:
  stamp:
    sec: 1771885249
    nanosec: 344006181
  frame_id: ''
pose:
  position:
    x: 0.11820088834326294
    y: 0.026908104476576773
    z: 0.0
  orientation:
    x: 0.0
    y: 0.0
    z: -4.670152293169609
    w: 1.0
---
header:
  stamp:
    sec: 1771885249
    nanosec: 344993086
  frame_id: ''
pose:
  position:
    x: 0.1181926509784338
    y: 0.02690771294727793
    z: 0.0
  orientation:
    x: 0.0
    y: 0.0
    z: -4.6702864311118235
    w: 1.0
---
header:
  stamp:
    sec: 1771885249
    nanosec: 345992598
  frame_id: ''
pose:
  position:
    x: 0.11818447878952941
    y: 0.026907325949263095
    z: 0.0
  orientation:
    x: 0.0
    y: 0.0
    z: -4.670419506650705
    w: 1.0
---
header:
  stamp:
    sec: 1771885249
    nanosec: 352430564
  frame_id: ''
pose:
  position:
    x: 0.11816034814910097
    y: 0.026906191564078287
    z: 0.0
  orientation:
    x: 0.0
    y: 0.0
    z: -4.670812442660257
    w: 1.0
---
header:
  stamp:
    sec: 1771885249
    nanosec: 357792991
  frame_id: ''
pose:
  position:
    x: 0.11813678579531227
    y: 0.026905095910029424
    z: 0.0
  orientation:
    x: 0.0
    y: 0.0
    z: -4.671196115993536
    w: 1.0
---
header:
  stamp:
    sec: 1771885249
    nanosec: 365016518
  frame_id: ''
pose:
  position:
    x: 0.1180913127981296
    y: 0.02690301498387006
    z: 0.0
  orientation:
    x: 0.0
    y: 0.0
    z: -4.671936542887572
    w: 1.0
---
header:
  stamp:
    sec: 1771885249
    nanosec: 370029248
  frame_id: ''
pose:
  position:
    x: 0.118055039858903
    y: 0.026901386794701273
    z: 0.0
  orientation:
    x: 0.0
    y: 0.0
    z: -4.672527144511446
    w: 1.0
---
header:
  stamp:
    sec: 1771885249
    nanosec: 373655420
  frame_id: ''
pose:
  position:
    x: 0.11803395777033725
    y: 0.02690045342113838
    z: 0.0
  orientation:
    x: 0.0
    y: 0.0
    z: -4.672870397219685
    w: 1.0
---
header:
  stamp:
    sec: 1771885249
    nanosec: 374147309
  frame_id: ''
pose:
  position:
    x: 0.1180270413400201
    y: 0.02690014928095656
    z: 0.0
  orientation:
    x: 0.0
    y: 0.0
    z: -4.672983007168626
    w: 1.0
---
header:
  stamp:
    sec: 1771885249
    nanosec: 375371484
  frame_id: ''
pose:
  position:
    x: 0.11802017964616174
    y: 0.0268998485598813
    z: 0.0
  orientation:
    x: 0.0
    y: 0.0
    z: -4.6730947252221995
    w: 1.0
---
header:
  stamp:
    sec: 1771885249
    nanosec: 376111734
  frame_id: ''
pose:
  position:
    x: 0.11801337225604963
    y: 0.026899551214974452
    z: 0.0
  orientation:
    x: 0.0
    y: 0.0
    z: -4.673205558444461
    w: 1.0
---
header:
  stamp:
    sec: 1771885249
    nanosec: 396033641
  frame_id: ''
pose:
  position:
    x: 0.11794195461815724
    y: 0.026896491539451724
    z: 0.0
  orientation:
    x: 0.0
    y: 0.0
    z: -4.674368290212913
    w: 1.0
---
header:
  stamp:
    sec: 1771885249
    nanosec: 399054361
  frame_id: ''
pose:
  position:
    x: 0.11792353632501552
    y: 0.02689572018629159
    z: 0.0
  orientation:
    x: 0.0
    y: 0.0
    z: -4.674668141676683
    w: 1.0
---
header:
  stamp:
    sec: 1771885249
    nanosec: 401036039
  frame_id: ''
pose:
  position:
    x: 0.11791149914756635
    y: 0.026895220000350408
    z: 0.0
  orientation:
    x: 0.0
    y: 0.0
    z: -4.674864105406758
    w: 1.0
---
header:
  stamp:
    sec: 1771885249
    nanosec: 410086350
  frame_id: ''
pose:
  position:
    x: 0.11786521873703876
    y: 0.02689332581310314
    z: 0.0
  orientation:
    x: 0.0
    y: 0.0
    z: -4.675617525761459
    w: 1.0
---
header:
  stamp:
    sec: 1771885249
    nanosec: 411161319
  frame_id: ''
pose:
  position:
    x: 0.1178596378346319
    y: 0.026893100497218398
    z: 0.0
  orientation:
    x: 0.0
    y: 0.0
    z: -4.675708377866279
    w: 1.0
---
header:
  stamp:
    sec: 1771885249
    nanosec: 430030060
  frame_id: ''
pose:
  position:
    x: 0.11779098165192535
    y: 0.026890383303306176
    z: 0.0
  orientation:
    x: 0.0
    y: 0.0
    z: -4.676826004590575
    w: 1.0
---
header:
  stamp:
    sec: 1771885249
    nanosec: 433068791
  frame_id: ''
pose:
  position:
    x: 0.11777612016618501
    y: 0.026889808440898062
    z: 0.0
  orientation:
    x: 0.0
    y: 0.0
    z: -4.677067920517848
    w: 1.0
---
header:
  stamp:
    sec: 1771885249
    nanosec: 435107061
  frame_id: ''
pose:
  position:
    x: 0.11776640755344774
    y: 0.02688943530339733
    z: 0.0
  orientation:
    x: 0.0
    y: 0.0
    z: -4.677226021291435
    w: 1.0
---
header:
  stamp:
    sec: 1771885249
    nanosec: 436086477
  frame_id: ''
pose:
  position:
    x: 0.11776160883703879
    y: 0.02688925169391841
    z: 0.0
  orientation:
    x: 0.0
    y: 0.0
    z: -4.677304133780075
    w: 1.0
---
header:
  stamp:
    sec: 1771885249
    nanosec: 439016384
  frame_id: ''
pose:
  position:
    x: 0.11774743941951163
    y: 0.026888712423194624
    z: 0.0
  orientation:
    x: 0.0
    y: 0.0
    z: -4.67753477880619
    w: 1.0
---
header:
  stamp:
    sec: 1771885249
    nanosec: 446444098
  frame_id: ''
pose:
  position:
    x: 0.11773360386247173
    y: 0.026888190014457438
    z: 0.0
  orientation:
    x: 0.0
    y: 0.0
    z: -4.677759986856198
    w: 1.0
---
header:
  stamp:
    sec: 1771885249
    nanosec: 459061429
  frame_id: ''
pose:
  position:
    x: 0.11769828204577389
    y: 0.0268868749429183
    z: 0.0
  orientation:
    x: 0.0
    y: 0.0
    z: -4.678334926033569
    w: 1.0
---
header:
  stamp:
    sec: 1771885249
    nanosec: 462005840
  frame_id: ''
pose:
  position:
    x: 0.11768560477378118
    y: 0.026886409481107397
    z: 0.0
  orientation:
    x: 0.0
    y: 0.0
    z: -4.6785412722823665
    w: 1.0
---
header:
  stamp:
    sec: 1771885249
    nanosec: 463259022
  frame_id: ''
pose:
  position:
    x: 0.1176814457497685
    y: 0.02688625752856759
    z: 0.0
  orientation:
    x: 0.0
    y: 0.0
    z: -4.678608967717376
    w: 1.0
---
header:
  stamp:
    sec: 1771885249
    nanosec: 470196080
  frame_id: ''
pose:
  position:
    x: 0.11766513633041974
    y: 0.02688566523519977
    z: 0.0
  orientation:
    x: 0.0
    y: 0.0
    z: -4.678874430140601
    w: 1.0
---
header:
  stamp:
    sec: 1771885249
    nanosec: 481118013
  frame_id: ''
pose:
  position:
    x: 0.11764933730761086
    y: 0.026885096919986803
    z: 0.0
  orientation:
    x: 0.0
    y: 0.0
    z: -4.679131581889719
    w: 1.0
---
header:
  stamp:
    sec: 1771885249
    nanosec: 487995350
  frame_id: ''
pose:
  position:
    x: 0.11763403271610777
    y: 0.026884551497770914
    z: 0.0
  orientation:
    x: 0.0
    y: 0.0
    z: -4.679380683142647
    w: 1.0
---
header:
  stamp:
    sec: 1771885249
    nanosec: 491060718
  frame_id: ''
pose:
  position:
    x: 0.11762286942070951
    y: 0.026884156832682575
    z: 0.0
  orientation:
    x: 0.0
    y: 0.0
    z: -4.679562377856596
    w: 1.0
---
header:
  stamp:
    sec: 1771885249
    nanosec: 494010911
  frame_id: ''
pose:
  position:
    x: 0.11761196918738671
    y: 0.026883774048481596
    z: 0.0
  orientation:
    x: 0.0
    y: 0.0
    z: -4.679739789498713
    w: 1.0
---
header:
  stamp:
    sec: 1771885249
    nanosec: 495173470
  frame_id: ''
pose:
  position:
    x: 0.1176083931592915
    y: 0.026883649024372222
    z: 0.0
  orientation:
    x: 0.0
    y: 0.0
    z: -4.679797992438795
    w: 1.0
---
header:
  stamp:
    sec: 1771885249
    nanosec: 496027379
  frame_id: ''
pose:
  position:
    x: 0.11760484544475057
    y: 0.02688352526135517
    z: 0.0
  orientation:
    x: 0.0
    y: 0.0
    z: -4.679855734400085
    w: 1.0
---
header:
  stamp:
    sec: 1771885249
    nanosec: 496980063
  frame_id: ''
pose:
  position:
    x: 0.11760132581968005
    y: 0.026883402745173982
    z: 0.0
  orientation:
    x: 0.0
    y: 0.0
    z: -4.679913019033632
    w: 1.0
---
header:
  stamp:
    sec: 1771885249
    nanosec: 521964279
  frame_id: ''
pose:
  position:
    x: 0.1175841413166911
    y: 0.026882808380298225
    z: 0.0
  orientation:
    x: 0.0
    y: 0.0
    z: -4.6801927080605585
    w: 1.0
---
header:
  stamp:
    sec: 1771885249
    nanosec: 523641519
  frame_id: ''
pose:
  position:
    x: 0.1175807856209276
    y: 0.026882693055659847
    z: 0.0
  orientation:
    x: 0.0
    y: 0.0
    z: -4.680247323796269
    w: 1.0
---
header:
  stamp:
    sec: 1771885249
    nanosec: 527052699
  frame_id: ''
pose:
  position:
    x: 0.11756762644039778
    y: 0.026882243148544416
    z: 0.0
  orientation:
    x: 0.0
    y: 0.0
    z: -4.680461495190143
    w: 1.0
---
header:
  stamp:
    sec: 1771885249
    nanosec: 531988479
  frame_id: ''
pose:
  position:
    x: 0.11755802804181961
    y: 0.026881917327398946
    z: 0.0
  orientation:
    x: 0.0
    y: 0.0
    z: -4.680617712029643
    w: 1.0
---
header:
  stamp:
    sec: 1771885249
    nanosec: 537050169
  frame_id: ''
pose:
  position:
    x: 0.11754253073763563
    y: 0.02688139543971932
    z: 0.0
  orientation:
    x: 0.0
    y: 0.0
    z: -4.680869933084705
    w: 1.0
---
header:
  stamp:
    sec: 1771885249
    nanosec: 539161839
  frame_id: ''
pose:
  position:
    x: 0.11753650224735732
    y: 0.02688119381684529
    z: 0.0
  orientation:
    x: 0.0
    y: 0.0
    z: -4.680968046960653
    w: 1.0
---
header:
  stamp:
    sec: 1771885249
    nanosec: 542954979
  frame_id: ''
pose:
  position:
    x: 0.1175247290387669
    y: 0.026880802311269554
    z: 0.0
  orientation:
    x: 0.0
    y: 0.0
    z: -4.68115965511396
    w: 1.0
---
header:
  stamp:
    sec: 1771885249
    nanosec: 544034529
  frame_id: ''
pose:
  position:
    x: 0.1175218437689101
    y: 0.026880706818614503
    z: 0.0
  orientation:
    x: 0.0
    y: 0.0
    z: -4.681206612439521
    w: 1.0
---
header:
  stamp:
    sec: 1771885249
    nanosec: 545024439
  frame_id: ''
pose:
  position:
    x: 0.11751898134520751
    y: 0.026880612258674077
    z: 0.0
  orientation:
    x: 0.0
    y: 0.0
    z: -4.681253197853904
    w: 1.0
---
header:
  stamp:
    sec: 1771885249
    nanosec: 546133149
  frame_id: ''
pose:
  position:
    x: 0.11751614158681349
    y: 0.026880518621280186
    z: 0.0
  orientation:
    x: 0.0
    y: 0.0
    z: -4.68129941430272
    w: 1.0
---
header:
  stamp:
    sec: 1771885249
    nanosec: 557059329
  frame_id: ''
pose:
  position:
    x: 0.11750500563924185
    y: 0.026880153098124988
    z: 0.0
  orientation:
    x: 0.0
    y: 0.0
    z: -4.6814806485419025
    w: 1.0
---
header:
  stamp:
    sec: 1771885249
    nanosec: 562344759
  frame_id: ''
pose:
  position:
    x: 0.11749421823618646
    y: 0.02687980155390238
    z: 0.0
  orientation:
    x: 0.0
    y: 0.0
    z: -4.681656208992213
    w: 1.0
---
header:
  stamp:
    sec: 1771885249
    nanosec: 563557599
  frame_id: ''
pose:
  position:
    x: 0.11749157455986452
    y: 0.02687971578183742
    z: 0.0
  orientation:
    x: 0.0
    y: 0.0
    z: -4.681699233514372
    w: 1.0
---
header:
  stamp:
    sec: 1771885249
    nanosec: 564085989
  frame_id: ''
pose:
  position:
    x: 0.11748895181723848
    y: 0.026879630837208214
    z: 0.0
  orientation:
    x: 0.0
    y: 0.0
    z: -4.681741917273957
    w: 1.0
---
header:
  stamp:
    sec: 1771885249
    nanosec: 569349459
  frame_id: ''
pose:
  position:
    x: 0.11748120754091283
    y: 0.02687938087958378
    z: 0.0
  orientation:
    x: 0.0
    y: 0.0
    z: -4.681867950859636
    w: 1.0
---
header:
  stamp:
    sec: 1771885249
    nanosec: 577020789
  frame_id: ''
pose:
  position:
    x: 0.11746870387599433
    y: 0.026878980023385828
    z: 0.0
  orientation:
    x: 0.0
    y: 0.0
    z: -4.682071439320396
    w: 1.0
---
header:
  stamp:
    sec: 1771885249
    nanosec: 578035359
  frame_id: ''
pose:
  position:
    x: 0.11746626223454638
    y: 0.026878902138260163
    z: 0.0
  orientation:
    x: 0.0
    y: 0.0
    z: -4.682111175137794
    w: 1.0
---
header:
  stamp:
    sec: 1771885249
    nanosec: 593126019
  frame_id: ''
pose:
  position:
    x: 0.11743842769025356
    y: 0.026878023299086822
    z: 0.0
  orientation:
    x: 0.0
    y: 0.0
    z: -4.682564156117423
    w: 1.0
---
header:
  stamp:
    sec: 1771885249
    nanosec: 595278009
  frame_id: ''
pose:
  position:
    x: 0.11743404133683297
    y: 0.026877886322834478
    z: 0.0
  orientation:
    x: 0.0
    y: 0.0
    z: -4.682635539120104
    w: 1.0
---
header:
  stamp:
    sec: 1771885249
    nanosec: 601977249
  frame_id: ''
pose:
  position:
    x: 0.11741922688295521
    y: 0.026877426753139918
    z: 0.0
  orientation:
    x: 0.0
    y: 0.0
    z: -4.682876626284355
    w: 1.0
---
header:
  stamp:
    sec: 1771885249
    nanosec: 606019779
  frame_id: ''
pose:
  position:
    x: 0.11741112437515558
    y: 0.026877177392721583
    z: 0.0
  orientation:
    x: 0.0
    y: 0.0
    z: -4.6830084837241035
    w: 1.0
---
header:
  stamp:
    sec: 1771885249
    nanosec: 608009049
  frame_id: ''
pose:
  position:
    x: 0.11740716873052258
    y: 0.026877056166969216
    z: 0.0
  orientation:
    x: 0.0
    y: 0.0
    z: -4.6830728562786215
    w: 1.0
---
header:
  stamp:
    sec: 1771885249
    nanosec: 611395389
  frame_id: ''
pose:
  position:
    x: 0.11740521437041498
    y: 0.02687699639710956
    z: 0.0
  orientation:
    x: 0.0
    y: 0.0
    z: -4.683104660680378
    w: 1.0
---
header:
  stamp:
    sec: 1771885249
    nanosec: 612050229
  frame_id: ''
pose:
  position:
    x: 0.11740327548676835
    y: 0.02687693718159443
    z: 0.0
  orientation:
    x: 0.0
    y: 0.0
    z: -4.683136213185152
    w: 1.0
---
header:
  stamp:
    sec: 1771885249
    nanosec: 612979479
  frame_id: ''
pose:
  position:
    x: 0.11740135195704776
    y: 0.0268768785147565
    z: 0.0
  orientation:
    x: 0.0
    y: 0.0
    z: -4.683167515788019
    w: 1.0
---
header:
  stamp:
    sec: 1771885249
    nanosec: 614446659
  frame_id: ''
pose:
  position:
    x: 0.11739944365968807
    y: 0.026876820390993456
    z: 0.0
  orientation:
    x: 0.0
    y: 0.0
    z: -4.683198570468249
    w: 1.0
---
header:
  stamp:
    sec: 1771885249
    nanosec: 623997639
  frame_id: ''
pose:
  position:
    x: 0.11739380896050895
    y: 0.026876649223088356
    z: 0.0
  orientation:
    x: 0.0
    y: 0.0
    z: -4.683290266531445
    w: 1.0
---
header:
  stamp:
    sec: 1771885249
    nanosec: 630984519
  frame_id: ''
pose:
  position:
    x: 0.11738650207294084
    y: 0.026876428273428996
    z: 0.0
  orientation:
    x: 0.0
    y: 0.0
    z: -4.68340917439399
    w: 1.0
---
header:
  stamp:
    sec: 1771885249
    nanosec: 633066939
  frame_id: ''
pose:
  position:
    x: 0.1173829348517145
    y: 0.02687632082224616
    z: 0.0
  orientation:
    x: 0.0
    y: 0.0
    z: -4.68346722498931
    w: 1.0
---
header:
  stamp:
    sec: 1771885249
    nanosec: 640797039
  frame_id: ''
pose:
  position:
    x: 0.11737426106153505
    y: 0.02687606069169842
    z: 0.0
  orientation:
    x: 0.0
    y: 0.0
    z: -4.683608375953962
    w: 1.0
---
header:
  stamp:
    sec: 1771885249
    nanosec: 648087759
  frame_id: ''
pose:
  position:
    x: 0.11736108063408715
    y: 0.026875668497354628
    z: 0.0
  orientation:
    x: 0.0
    y: 0.0
    z: -4.683822863175033
    w: 1.0
---
header:
  stamp:
    sec: 1771885249
    nanosec: 653005449
  frame_id: ''
pose:
  position:
    x: 0.11735791445010856
    y: 0.026875574840565384
    z: 0.0
  orientation:
    x: 0.0
    y: 0.0
    z: -4.68387438673178
    w: 1.0
---
header:
  stamp:
    sec: 1771885249
    nanosec: 653988519
  frame_id: ''
pose:
  position:
    x: 0.11735635013845734
    y: 0.02687552864713631
    z: 0.0
  orientation:
    x: 0.0
    y: 0.0
    z: -4.683899842858432
    w: 1.0
---
header:
  stamp:
    sec: 1771885249
    nanosec: 667130769
  frame_id: ''
pose:
  position:
    x: 0.11733993912647626
    y: 0.02687504720391209
    z: 0.0
  orientation:
    x: 0.0
    y: 0.0
    z: -4.684166898628079
    w: 1.0
---
header:
  stamp:
    sec: 1771885249
    nanosec: 669131109
  frame_id: ''
pose:
  position:
    x: 0.11733710646691935
    y: 0.02687496468848316
    z: 0.0
  orientation:
    x: 0.0
    y: 0.0
    z: -4.684212994112619
    w: 1.0
---
header:
  stamp:
    sec: 1771885249
    nanosec: 673103889
  frame_id: ''
pose:
  position:
    x: 0.1173315745065062
    y: 0.0268748040390927
    z: 0.0
  orientation:
    x: 0.0
    y: 0.0
    z: -4.684303014720736
    w: 1.0
---
header:
  stamp:
    sec: 1771885249
    nanosec: 677512179
  frame_id: ''
pose:
  position:
    x: 0.11732621571370744
    y: 0.02687464904502183
    z: 0.0
  orientation:
    x: 0.0
    y: 0.0
    z: -4.684390217110212
    w: 1.0
---
header:
  stamp:
    sec: 1771885249
    nanosec: 679308219
  frame_id: ''
pose:
  position:
    x: 0.1173235995547006
    y: 0.026874573600988032
    z: 0.0
  orientation:
    x: 0.0
    y: 0.0
    z: -4.684432789153202
    w: 1.0
---
header:
  stamp:
    sec: 1771885249
    nanosec: 685615239
  frame_id: ''
pose:
  position:
    x: 0.11731975249874062
    y: 0.026874462927616808
    z: 0.0
  orientation:
    x: 0.0
    y: 0.0
    z: -4.684495391123041
    w: 1.0
---
header:
  stamp:
    sec: 1771885249
    nanosec: 694316889
  frame_id: ''
pose:
  position:
    x: 0.11730874689758582
    y: 0.02687414806958066
    z: 0.0
  orientation:
    x: 0.0
    y: 0.0
    z: -4.6846744811063346
    w: 1.0
---
header:
  stamp:
    sec: 1771885249
    nanosec: 695035089
  frame_id: ''
pose:
  position:
    x: 0.11730757196109327
    y: 0.026874114609579072
    z: 0.0
  orientation:
    x: 0.0
    y: 0.0
    z: -4.684693600332479
    w: 1.0
---
header:
  stamp:
    sec: 1771885249
    nanosec: 695967399
  frame_id: ''
pose:
  position:
    x: 0.11730640632949504
    y: 0.02687408144385022
    z: 0.0
  orientation:
    x: 0.0
    y: 0.0
    z: -4.684712568130701
    w: 1.0
---
header:
  stamp:
    sec: 1771885249
    nanosec: 697057839
  frame_id: ''
pose:
  position:
    x: 0.11730524992910829
    y: 0.026874048569601773
    z: 0.0
  orientation:
    x: 0.0
    y: 0.0
    z: -4.684731385700338
    w: 1.0
---
header:
  stamp:
    sec: 1771885249
    nanosec: 710252559
  frame_id: ''
pose:
  position:
    x: 0.11729740753231231
    y: 0.026873826382844593
    z: 0.0
  orientation:
    x: 0.0
    y: 0.0
    z: -4.684859001055897
    w: 1.0
---
header:
  stamp:
    sec: 1771885249
    nanosec: 713698209
  frame_id: ''
pose:
  position:
    x: 0.1172941778428653
    y: 0.026873735264805222
    z: 0.0
  orientation:
    x: 0.0
    y: 0.0
    z: -4.684911555983023
    w: 1.0
---
header:
  stamp:
    sec: 1771885249
    nanosec: 721366209
  frame_id: ''
pose:
  position:
    x: 0.1172910242804589
    y: 0.026873646510596785
    z: 0.0
  orientation:
    x: 0.0
    y: 0.0
    z: -4.684962872039098
    w: 1.0
---
header:
  stamp:
    sec: 1771885249
    nanosec: 724082679
  frame_id: ''
pose:
  position:
    x: 0.11728794505085377
    y: 0.026873560054438566
    z: 0.0
  orientation:
    x: 0.0
    y: 0.0
    z: -4.685012978427889
    w: 1.0
---
header:
  stamp:
    sec: 1771885249
    nanosec: 733017789
  frame_id: ''
pose:
  position:
    x: 0.1172791360447125
    y: 0.026873313846331695
    z: 0.0
  orientation:
    x: 0.0
    y: 0.0
    z: -4.685156321398925
    w: 1.0
---
header:
  stamp:
    sec: 1771885249
    nanosec: 734030559
  frame_id: ''
pose:
  position:
    x: 0.11727819561316874
    y: 0.026873287660077027
    z: 0.0
  orientation:
    x: 0.0
    y: 0.0
    z: -4.685171624357993
    w: 1.0
---
header:
  stamp:
    sec: 1771885249
    nanosec: 736964019
  frame_id: ''
pose:
  position:
    x: 0.11727541877035405
    y: 0.02687321044987508
    z: 0.0
  orientation:
    x: 0.0
    y: 0.0
    z: -4.685216809853252
    w: 1.0
---
header:
  stamp:
    sec: 1771885249
    nanosec: 739582569
  frame_id: ''
pose:
  position:
    x: 0.11727360400100577
    y: 0.026873160079603244
    z: 0.0
  orientation:
    x: 0.0
    y: 0.0
    z: -4.685246340203253
    w: 1.0
---
header:
  stamp:
    sec: 1771885249
    nanosec: 747264069
  frame_id: ''
pose:
  position:
    x: 0.11727093538848841
    y: 0.026873086138710773
    z: 0.0
  orientation:
    x: 0.0
    y: 0.0
    z: -4.685289764430813
    w: 1.0
---
header:
  stamp:
    sec: 1771885249
    nanosec: 753036939
  frame_id: ''
pose:
  position:
    x: 0.11726919135173694
    y: 0.02687303789821921
    z: 0.0
  orientation:
    x: 0.0
    y: 0.0
    z: -4.685318143728885
    w: 1.0
---
header:
  stamp:
    sec: 1771885249
    nanosec: 762991299
  frame_id: ''
pose:
  position:
    x: 0.11726248604872543
    y: 0.026872853036025435
    z: 0.0
  orientation:
    x: 0.0
    y: 0.0
    z: -4.685427253424592
    w: 1.0
---
header:
  stamp:
    sec: 1771885249
    nanosec: 767209689
  frame_id: ''
pose:
  position:
    x: 0.11725928999240688
    y: 0.02687276526187893
    z: 0.0
  orientation:
    x: 0.0
    y: 0.0
    z: -4.685479259980846
    w: 1.0
---
header:
  stamp:
    sec: 1771885249
    nanosec: 776104029
  frame_id: ''
pose:
  position:
    x: 0.11725319490153925
    y: 0.02687259847866081
    z: 0.0
  orientation:
    x: 0.0
    y: 0.0
    z: -4.685578439655066
    w: 1.0
---
header:
  stamp:
    sec: 1771885249
    nanosec: 778382739
  frame_id: ''
pose:
  position:
    x: 0.11725245991610553
    y: 0.02687257842074891
    z: 0.0
  orientation:
    x: 0.0
    y: 0.0
    z: -4.685590399357087
    w: 1.0
---
header:
  stamp:
    sec: 1771885249
    nanosec: 778996719
  frame_id: ''
pose:
  position:
    x: 0.11725173075158547
    y: 0.026872558533150934
    z: 0.0
  orientation:
    x: 0.0
    y: 0.0
    z: -4.685602264335991
    w: 1.0
---
header:
  stamp:
    sec: 1771885249
    nanosec: 795014919
  frame_id: ''
pose:
  position:
    x: 0.11724542272503483
    y: 0.026872386961378142
    z: 0.0
  orientation:
    x: 0.0
    y: 0.0
    z: -4.685704908453691
    w: 1.0
---
header:
  stamp:
    sec: 1771885249
    nanosec: 797010579
  frame_id: ''
pose:
  position:
    x: 0.1172440811955394
    y: 0.026872350583323934
    z: 0.0
  orientation:
    x: 0.0
    y: 0.0
    z: -4.685726737753982
    w: 1.0
---
header:
  stamp:
    sec: 1771885249
    nanosec: 797979789
  frame_id: ''
pose:
  position:
    x: 0.11724341838872289
    y: 0.026872332624351035
    z: 0.0
  orientation:
    x: 0.0
    y: 0.0
    z: -4.6857375229068134
    w: 1.0
---
header:
  stamp:
    sec: 1771885249
    nanosec: 811262889
  frame_id: ''
pose:
  position:
    x: 0.11723955033969627
    y: 0.02687222800638752
    z: 0.0
  orientation:
    x: 0.0
    y: 0.0
    z: -4.68580046348652
    w: 1.0
---
header:
  stamp:
    sec: 1771885249
    nanosec: 812121849
  frame_id: ''
pose:
  position:
    x: 0.11723892341644582
    y: 0.02687221108043086
    z: 0.0
  orientation:
    x: 0.0
    y: 0.0
    z: -4.6858106647175095
    w: 1.0
---
header:
  stamp:
    sec: 1771885249
    nanosec: 813020949
  frame_id: ''
pose:
  position:
    x: 0.1172383014583229
    y: 0.026872194296862672
    z: 0.0
  orientation:
    x: 0.0
    y: 0.0
    z: -4.685820785152807
    w: 1.0
---
header:
  stamp:
    sec: 1771885249
    nanosec: 821194209
  frame_id: ''
pose:
  position:
    x: 0.11723586249533982
    y: 0.026872128561470723
    z: 0.0
  orientation:
    x: 0.0
    y: 0.0
    z: -4.685860471659644
    w: 1.0
---
header:
  stamp:
    sec: 1771885249
    nanosec: 826027029
  frame_id: ''
pose:
  position:
    x: 0.11723349988416665
    y: 0.026872065005696947
    z: 0.0
  orientation:
    x: 0.0
    y: 0.0
    z: -4.6858989157260735
    w: 1.0
---
header:
  stamp:
    sec: 1771885249
    nanosec: 826982199
  frame_id: ''
pose:
  position:
    x: 0.11723292087959274
    y: 0.026872049448380453
    z: 0.0
  orientation:
    x: 0.0
    y: 0.0
    z: -4.685908337196581
    w: 1.0
---
header:
  stamp:
    sec: 1771885249
    nanosec: 828046449
  frame_id: ''
pose:
  position:
    x: 0.11723234646065507
    y: 0.026872034021387558
    z: 0.0
  orientation:
    x: 0.0
    y: 0.0
    z: -4.685917684047249
    w: 1.0
---
header:
  stamp:
    sec: 1771885249
    nanosec: 840828429
  frame_id: ''
pose:
  position:
    x: 0.11722954188946703
    y: 0.026871958801602955
    z: 0.0
  orientation:
    x: 0.0
    y: 0.0
    z: -4.685963319525049
    w: 1.0
---
header:
  stamp:
    sec: 1771885249
    nanosec: 843887259
  frame_id: ''
pose:
  position:
    x: 0.1172279118939567
    y: 0.026871915162023106
    z: 0.0
  orientation:
    x: 0.0
    y: 0.0
    z: -4.68598984248505
    w: 1.0
---
header:
  stamp:
    sec: 1771885249
    nanosec: 845752329
  frame_id: ''
pose:
  position:
    x: 0.11722737714555978
    y: 0.02687190085772495
    z: 0.0
  orientation:
    x: 0.0
    y: 0.0
    z: -4.685998543798317
    w: 1.0
---
header:
  stamp:
    sec: 1771885249
    nanosec: 846367119
  frame_id: ''
pose:
  position:
    x: 0.11722684663231038
    y: 0.02687188667278137
    z: 0.0
  orientation:
    x: 0.0
    y: 0.0
    z: -4.686007176195527
    w: 1.0
---
header:
  stamp:
    sec: 1771885249
    nanosec: 854652249
  frame_id: ''
pose:
  position:
    x: 0.11722528016936767
    y: 0.026871844823717253
    z: 0.0
  orientation:
    x: 0.0
    y: 0.0
    z: -4.686032665327513
    w: 1.0
---
header:
  stamp:
    sec: 1771885249
    nanosec: 865102329
  frame_id: ''
pose:
  position:
    x: 0.11722079886777009
    y: 0.02687172539377414
    z: 0.0
  orientation:
    x: 0.0
    y: 0.0
    z: -4.686105583931422
    w: 1.0
---
header:
  stamp:
    sec: 1771885249
    nanosec: 866992959
  frame_id: ''
pose:
  position:
    x: 0.11721984582894142
    y: 0.026871700050189212
    z: 0.0
  orientation:
    x: 0.0
    y: 0.0
    z: -4.686121091513721
    w: 1.0
---
header:
  stamp:
    sec: 1771885249
    nanosec: 875851389
  frame_id: ''
pose:
  position:
    x: 0.11721752849739482
    y: 0.026871638508140262
    z: 0.0
  orientation:
    x: 0.0
    y: 0.0
    z: -4.686158798451987
    w: 1.0
---
header:
  stamp:
    sec: 1771885249
    nanosec: 885327129
  frame_id: ''
pose:
  position:
    x: 0.11721530148932985
    y: 0.02687157947346756
    z: 0.0
  orientation:
    x: 0.0
    y: 0.0
    z: -4.686195035626362
    w: 1.0
---
header:
  stamp:
    sec: 1771885249
    nanosec: 888026319
  frame_id: ''
pose:
  position:
    x: 0.1172140071694799
    y: 0.026871545211894377
    z: 0.0
  orientation:
    x: 0.0
    y: 0.0
    z: -4.686216096370614
    w: 1.0
---
header:
  stamp:
    sec: 1771885249
    nanosec: 891010809
  frame_id: ''
pose:
  position:
    x: 0.11721274335956082
    y: 0.02687151179264307
    z: 0.0
  orientation:
    x: 0.0
    y: 0.0
    z: -4.6862366606524795
    w: 1.0
---
header:
  stamp:
    sec: 1771885249
    nanosec: 899374419
  frame_id: ''
pose:
  position:
    x: 0.11721030440981205
    y: 0.02687144739580126
    z: 0.0
  orientation:
    x: 0.0
    y: 0.0
    z: -4.686276346365373
    w: 1.0
---
header:
  stamp:
    sec: 1771885249
    nanosec: 902209239
  frame_id: ''
pose:
  position:
    x: 0.11720912788210795
    y: 0.026871416376994663
    z: 0.0
  orientation:
    x: 0.0
    y: 0.0
    z: -4.686295490381377
    w: 1.0
---
header:
  stamp:
    sec: 1771885249
    nanosec: 906092379
  frame_id: ''
pose:
  position:
    x: 0.11720760220589921
    y: 0.02687137619724221
    z: 0.0
  orientation:
    x: 0.0
    y: 0.0
    z: -4.68632031559153
    w: 1.0
---
header:
  stamp:
    sec: 1771885249
    nanosec: 914382909
  frame_id: ''
pose:
  position:
    x: 0.11720648937521992
    y: 0.026871346921582537
    z: 0.0
  orientation:
    x: 0.0
    y: 0.0
    z: -4.6863384231262675
    w: 1.0
---
header:
  stamp:
    sec: 1771885249
    nanosec: 920014389
  frame_id: ''
pose:
  position:
    x: 0.11720540277649154
    y: 0.026871318361669113
    z: 0.0
  orientation:
    x: 0.0
    y: 0.0
    z: -4.686356103814273
    w: 1.0
---
header:
  stamp:
    sec: 1771885249
    nanosec: 924012459
  frame_id: ''
pose:
  position:
    x: 0.11720399371682998
    y: 0.026871281364011186
    z: 0.0
  orientation:
    x: 0.0
    y: 0.0
    z: -4.686379031437992
    w: 1.0
---
header:
  stamp:
    sec: 1771885249
    nanosec: 926980569
  frame_id: ''
pose:
  position:
    x: 0.11720296594650796
    y: 0.026871254404743986
    z: 0.0
  orientation:
    x: 0.0
    y: 0.0
    z: -4.686395754871164
    w: 1.0
---
header:
  stamp:
    sec: 1771885249
    nanosec: 928327779
  frame_id: ''
pose:
  position:
    x: 0.11720262876864523
    y: 0.02687124556522918
    z: 0.0
  orientation:
    x: 0.0
    y: 0.0
    z: -4.686401241281088
    w: 1.0
---
header:
  stamp:
    sec: 1771885249
    nanosec: 934178859
  frame_id: ''
pose:
  position:
    x: 0.11720130655103374
    y: 0.026871210925287572
    z: 0.0
  orientation:
    x: 0.0
    y: 0.0
    z: -4.6864227558146645
    w: 1.0
---
header:
  stamp:
    sec: 1771885249
    nanosec: 935007579
  frame_id: ''
pose:
  position:
    x: 0.11720098251559365
    y: 0.02687120244181412
    z: 0.0
  orientation:
    x: 0.0
    y: 0.0
    z: -4.686428028371979
    w: 1.0
---
header:
  stamp:
    sec: 1771885249
    nanosec: 936967149
  frame_id: ''
pose:
  position:
    x: 0.11720034212348086
    y: 0.026871185682531877
    z: 0.0
  orientation:
    x: 0.0
    y: 0.0
    z: -4.6864384485383805
    w: 1.0
---
header:
  stamp:
    sec: 1771885249
    nanosec: 938105289
  frame_id: ''
pose:
  position:
    x: 0.11720002572631881
    y: 0.026871177405558454
    z: 0.0
  orientation:
    x: 0.0
    y: 0.0
    z: -4.686443596806337
    w: 1.0
---
header:
  stamp:
    sec: 1771885249
    nanosec: 942635079
  frame_id: ''
pose:
  position:
    x: 0.11719971183502709
    y: 0.02687116919626234
    z: 0.0
  orientation:
    x: 0.0
    y: 0.0
    z: -4.686448704299033
    w: 1.0
---
header:
  stamp:
    sec: 1771885249
    nanosec: 952397469
  frame_id: ''
pose:
  position:
    x: 0.11719878499869762
    y: 0.026871144968767992
    z: 0.0
  orientation:
    x: 0.0
    y: 0.0
    z: -4.686463785342259
    w: 1.0
---
header:
  stamp:
    sec: 1771885249
    nanosec: 953963289
  frame_id: ''
pose:
  position:
    x: 0.11719817927748531
    y: 0.02687112914518426
    z: 0.0
  orientation:
    x: 0.0
    y: 0.0
    z: -4.686473641347661
    w: 1.0
---
header:
  stamp:
    sec: 1771885249
    nanosec: 960043239
  frame_id: ''
pose:
  position:
    x: 0.11719641885307167
    y: 0.02687108320137225
    z: 0.0
  orientation:
    x: 0.0
    y: 0.0
    z: -4.686502286111461
    w: 1.0
---
header:
  stamp:
    sec: 1771885249
    nanosec: 964971549
  frame_id: ''
pose:
  position:
    x: 0.11719501464877835
    y: 0.026871046601942103
    z: 0.0
  orientation:
    x: 0.0
    y: 0.0
    z: -4.686525134615749
    w: 1.0
---
header:
  stamp:
    sec: 1771885249
    nanosec: 969010929
  frame_id: ''
pose:
  position:
    x: 0.11719393079664199
    y: 0.026871018381172337
    z: 0.0
  orientation:
    x: 0.0
    y: 0.0
    z: -4.686542770499016
    w: 1.0
---
header:
  stamp:
    sec: 1771885249
    nanosec: 973035639
  frame_id: ''
pose:
  position:
    x: 0.11719288087535497
    y: 0.02687099106792226
    z: 0.0
  orientation:
    x: 0.0
    y: 0.0
    z: -4.686559854266835
    w: 1.0
---
header:
  stamp:
    sec: 1771885249
    nanosec: 973969299
  frame_id: ''
pose:
  position:
    x: 0.11719262357151163
    y: 0.02687098437788384
    z: 0.0
  orientation:
    x: 0.0
    y: 0.0
    z: -4.686564040978327
    w: 1.0
---
header:
  stamp:
    sec: 1771885249
    nanosec: 975029139
  frame_id: ''
pose:
  position:
    x: 0.11719236830552723
    y: 0.026870977742235232
    z: 0.0
  orientation:
    x: 0.0
    y: 0.0
    z: -4.686568194530268
    w: 1.0
---
header:
  stamp:
    sec: 1771885249
    nanosec: 992531439
  frame_id: ''
pose:
  position:
    x: 0.1171901599939954
    y: 0.02687092039548978
    z: 0.0
  orientation:
    x: 0.0
    y: 0.0
    z: -4.6866041269729894
    w: 1.0
---
header:
  stamp:
    sec: 1771885249
    nanosec: 994005099
  frame_id: ''
pose:
  position:
    x: 0.11718969035255275
    y: 0.02687090821306105
    z: 0.0
  orientation:
    x: 0.0
    y: 0.0
    z: -4.686611768717115
    w: 1.0
---
header:
  stamp:
    sec: 1771885249
    nanosec: 995021199
  frame_id: ''
pose:
  position:
    x: 0.11718945831782619
    y: 0.026870902195862516
    z: 0.0
  orientation:
    x: 0.0
    y: 0.0
    z: -4.686615544256286
    w: 1.0
---
header:
  stamp:
    sec: 1771885249
    nanosec: 996668199
  frame_id: ''
pose:
  position:
    x: 0.11718922812082926
    y: 0.02687089622746265
    z: 0.0
  orientation:
    x: 0.0
    y: 0.0
    z: -4.686619289892469
    w: 1.0
---
header:
  stamp:
    sec: 1771885249
    nanosec: 998090109
  frame_id: ''
pose:
  position:
    x: 0.11718877318192072
    y: 0.026870884435444418
    z: 0.0
  orientation:
    x: 0.0
    y: 0.0
    z: -4.686626692401342
    w: 1.0
---
header:
  stamp:
    sec: 1771885250
    nanosec: 9671939
  frame_id: ''
pose:
  position:
    x: 0.11718832542076733
    y: 0.026870872833812
    z: 0.0
  orientation:
    x: 0.0
    y: 0.0
    z: -4.686633978116014
    w: 1.0
---
header:
  stamp:
    sec: 1771885250
    nanosec: 26010449
  frame_id: ''
pose:
  position:
    x: 0.1171861903797107
    y: 0.02687081757341425
    z: 0.0
  orientation:
    x: 0.0
    y: 0.0
    z: -4.6866687182641735
    w: 1.0
---
header:
  stamp:
    sec: 1771885250
    nanosec: 28993139
  frame_id: ''
pose:
  position:
    x: 0.1171855822773715
    y: 0.026870801852053622
    z: 0.0
  orientation:
    x: 0.0
    y: 0.0
    z: -4.686678612944764
    w: 1.0
---
header:
  stamp:
    sec: 1771885250
    nanosec: 33996779
  frame_id: ''
pose:
  position:
    x: 0.11718460046078127
    y: 0.026870776485757475
    z: 0.0
  orientation:
    x: 0.0
    y: 0.0
    z: -4.6866945884749605
    w: 1.0
---
header:
  stamp:
    sec: 1771885250
    nanosec: 35110259
  frame_id: ''
pose:
  position:
    x: 0.11718440873837255
    y: 0.026870771534816103
    z: 0.0
  orientation:
    x: 0.0
    y: 0.0
    z: -4.686697708065896
    w: 1.0
---
header:
  stamp:
    sec: 1771885250
    nanosec: 36042209
  frame_id: ''
pose:
  position:
    x: 0.11718421853442167
    y: 0.02687076662386632
    z: 0.0
  orientation:
    x: 0.0
    y: 0.0
    z: -4.686700802949078
    w: 1.0
---
header:
  stamp:
    sec: 1771885250
    nanosec: 38079539
  frame_id: ''
pose:
  position:
    x: 0.1171838426338841
    y: 0.02687075692062818
    z: 0.0
  orientation:
    x: 0.0
    y: 0.0
    z: -4.686706919373392
    w: 1.0
---
header:
  stamp:
    sec: 1771885250
    nanosec: 53050859
  frame_id: ''
pose:
  position:
    x: 0.11718310853149161
    y: 0.02687073797975964
    z: 0.0
  orientation:
    x: 0.0
    y: 0.0
    z: -4.686718864236182
    w: 1.0
---
header:
  stamp:
    sec: 1771885250
    nanosec: 54041309
  frame_id: ''
pose:
  position:
    x: 0.11718292862529456
    y: 0.026870733339693056
    z: 0.0
  orientation:
    x: 0.0
    y: 0.0
    z: -4.686721791558472
    w: 1.0
---
header:
  stamp:
    sec: 1771885250
    nanosec: 70016129
  frame_id: ''
pose:
  position:
    x: 0.11718153973440211
    y: 0.02687069754137747
    z: 0.0
  orientation:
    x: 0.0
    y: 0.0
    z: -4.686744390721655
    w: 1.0
---
header:
  stamp:
    sec: 1771885250
    nanosec: 71016119
  frame_id: ''
pose:
  position:
    x: 0.11718137225322708
    y: 0.026870693227389816
    z: 0.0
  orientation:
    x: 0.0
    y: 0.0
    z: -4.686747115869324
    w: 1.0
---
header:
  stamp:
    sec: 1771885250
    nanosec: 90981629
  frame_id: ''
pose:
  position:
    x: 0.11717961523658382
    y: 0.02687064800636916
    z: 0.0
  orientation:
    x: 0.0
    y: 0.0
    z: -4.686775704916825
    w: 1.0
---
header:
  stamp:
    sec: 1771885250
    nanosec: 94290929
  frame_id: ''
pose:
  position:
    x: 0.11717916212741702
    y: 0.026870636355270903
    z: 0.0
  orientation:
    x: 0.0
    y: 0.0
    z: -4.686783077613976
    w: 1.0
---
header:
  stamp:
    sec: 1771885250
    nanosec: 96158159
  frame_id: ''
pose:
  position:
    x: 0.11717886600418133
    y: 0.026870628743237944
    z: 0.0
  orientation:
    x: 0.0
    y: 0.0
    z: -4.686787895937341
    w: 1.0
---
header:
  stamp:
    sec: 1771885250
    nanosec: 100043639
  frame_id: ''
pose:
  position:
    x: 0.11717828770024265
    y: 0.02687061388300118
    z: 0.0
  orientation:
    x: 0.0
    y: 0.0
    z: -4.686797305718045
    w: 1.0
---
header:
  stamp:
    sec: 1771885250
    nanosec: 110992499
  frame_id: ''
pose:
  position:
    x: 0.11717731889048934
    y: 0.026870589004320898
    z: 0.0
  orientation:
    x: 0.0
    y: 0.0
    z: -4.686813069545385
    w: 1.0
---
header:
  stamp:
    sec: 1771885250
    nanosec: 111998069
  frame_id: ''
pose:
  position:
    x: 0.11717718483885299
    y: 0.026870585563510685
    z: 0.0
  orientation:
    x: 0.0
    y: 0.0
    z: -4.686815250743708
    w: 1.0
---
header:
  stamp:
    sec: 1771885250
    nanosec: 115024229
  frame_id: ''
pose:
  position:
    x: 0.1171767890206037
    y: 0.026870575405979244
    z: 0.0
  orientation:
    x: 0.0
    y: 0.0
    z: -4.6868216912318585
    w: 1.0
---
header:
  stamp:
    sec: 1771885250
    nanosec: 125400959
  frame_id: ''
pose:
  position:
    x: 0.11717627573887231
    y: 0.026870562239095383
    z: 0.0
  orientation:
    x: 0.0
    y: 0.0
    z: -4.686830043004645
    w: 1.0
---
header:
  stamp:
    sec: 1771885250
    nanosec: 127989989
  frame_id: ''
pose:
  position:
    x: 0.11717590135053906
    y: 0.026870552638720915
    z: 0.0
  orientation:
    x: 0.0
    y: 0.0
    z: -4.686836134796616
    w: 1.0
---
header:
  stamp:
    sec: 1771885250
    nanosec: 133423829
  frame_id: ''
pose:
  position:
    x: 0.11717529687890631
    y: 0.02687053714471144
    z: 0.0
  orientation:
    x: 0.0
    y: 0.0
    z: -4.686845970344687
    w: 1.0
---
header:
  stamp:
    sec: 1771885250
    nanosec: 137681279
  frame_id: ''
pose:
  position:
    x: 0.11717517884184729
    y: 0.026870534120063294
    z: 0.0
  orientation:
    x: 0.0
    y: 0.0
    z: -4.686847890962421
    w: 1.0
---
header:
  stamp:
    sec: 1771885250
    nanosec: 140023169
  frame_id: ''
pose:
  position:
    x: 0.11717483031032237
    y: 0.02687052519084037
    z: 0.0
  orientation:
    x: 0.0
    y: 0.0
    z: -4.6868535620266405
    w: 1.0
---
header:
  stamp:
    sec: 1771885250
    nanosec: 145439369
  frame_id: ''
pose:
  position:
    x: 0.11717471596854574
    y: 0.02687052226202288
    z: 0.0
  orientation:
    x: 0.0
    y: 0.0
    z: -4.68685542251681
    w: 1.0
---
header:
  stamp:
    sec: 1771885250
    nanosec: 153284129
  frame_id: ''
pose:
  position:
    x: 0.11717426758601379
    y: 0.02687051077959724
    z: 0.0
  orientation:
    x: 0.0
    y: 0.0
    z: -4.686862718285589
    w: 1.0
---
header:
  stamp:
    sec: 1771885250
    nanosec: 159031259
  frame_id: ''
pose:
  position:
    x: 0.11717394053524754
    y: 0.026870502407023954
    z: 0.0
  orientation:
    x: 0.0
    y: 0.0
    z: -4.686868039827112
    w: 1.0
---
header:
  stamp:
    sec: 1771885250
    nanosec: 159989849
  frame_id: ''
pose:
  position:
    x: 0.11717383324060504
    y: 0.026870499660757132
    z: 0.0
  orientation:
    x: 0.0
    y: 0.0
    z: -4.686869785650348
    w: 1.0
---
header:
  stamp:
    sec: 1771885250
    nanosec: 164026979
  frame_id: ''
pose:
  position:
    x: 0.11717341249287463
    y: 0.02687048889386655
    z: 0.0
  orientation:
    x: 0.0
    y: 0.0
    z: -4.686876631761587
    w: 1.0
---
header:
  stamp:
    sec: 1771885250
    nanosec: 171732059
  frame_id: ''
pose:
  position:
    x: 0.11717310559897043
    y: 0.026870481042880326
    z: 0.0
  orientation:
    x: 0.0
    y: 0.0
    z: -4.68688162532242
    w: 1.0
---
header:
  stamp:
    sec: 1771885250
    nanosec: 173943629
  frame_id: ''
pose:
  position:
    x: 0.11717290503271295
    y: 0.026870475913069507
    z: 0.0
  orientation:
    x: 0.0
    y: 0.0
    z: -4.686884888794437
    w: 1.0
---
header:
  stamp:
    sec: 1771885250
    nanosec: 175759919
  frame_id: ''
pose:
  position:
    x: 0.11717280593938932
    y: 0.026870473378914028
    z: 0.0
  orientation:
    x: 0.0
    y: 0.0
    z: -4.6868865011706475
    w: 1.0
---
header:
  stamp:
    sec: 1771885250
    nanosec: 178975079
  frame_id: ''
pose:
  position:
    x: 0.1171725133435998
    y: 0.026870465897468228
    z: 0.0
  orientation:
    x: 0.0
    y: 0.0
    z: -4.686891262081094
    w: 1.0
---
header:
  stamp:
    sec: 1771885250
    nanosec: 191136059
  frame_id: ''
pose:
  position:
    x: 0.11717194868127387
    y: 0.026870451464689082
    z: 0.0
  orientation:
    x: 0.0
    y: 0.0
    z: -4.686900449862432
    w: 1.0
---
header:
  stamp:
    sec: 1771885250
    nanosec: 191971799
  frame_id: ''
pose:
  position:
    x: 0.11717185716238597
    y: 0.02687044912610923
    z: 0.0
  orientation:
    x: 0.0
    y: 0.0
    z: -4.686901938992024
    w: 1.0
---
header:
  stamp:
    sec: 1771885250
    nanosec: 207013139
  frame_id: ''
pose:
  position:
    x: 0.11717106543086551
    y: 0.026870428902519113
    z: 0.0
  orientation:
    x: 0.0
    y: 0.0
    z: -4.6869148214753915
    w: 1.0
---
header:
  stamp:
    sec: 1771885250
    nanosec: 210088799
  frame_id: ''
pose:
  position:
    x: 0.11717081386361981
    y: 0.026870422479429446
    z: 0.0
  orientation:
    x: 0.0
    y: 0.0
    z: -4.686918914794717
    w: 1.0
---
header:
  stamp:
    sec: 1771885250
    nanosec: 211108589
  frame_id: ''
pose:
  position:
    x: 0.11717073133264991
    y: 0.02687042037252015
    z: 0.0
  orientation:
    x: 0.0
    y: 0.0
    z: -4.686920257678533
    w: 1.0
---
header:
  stamp:
    sec: 1771885250
    nanosec: 224014319
  frame_id: ''
pose:
  position:
    x: 0.1171701716312031
    y: 0.026870406087921645
    z: 0.0
  orientation:
    x: 0.0
    y: 0.0
    z: -4.686929364731123
    w: 1.0
---
header:
  stamp:
    sec: 1771885250
    nanosec: 232025939
  frame_id: ''
pose:
  position:
    x: 0.11716956898106477
    y: 0.026870390714712884
    z: 0.0
  orientation:
    x: 0.0
    y: 0.0
    z: -4.68693917061029
    w: 1.0
---
header:
  stamp:
    sec: 1771885250
    nanosec: 235722509
  frame_id: ''
pose:
  position:
    x: 0.11716935268926239
    y: 0.026870385199152382
    z: 0.0
  orientation:
    x: 0.0
    y: 0.0
    z: -4.686942689950401
    w: 1.0
---
header:
  stamp:
    sec: 1771885250
    nanosec: 244840229
  frame_id: ''
pose:
  position:
    x: 0.11716914149605583
    y: 0.026870379814577895
    z: 0.0
  orientation:
    x: 0.0
    y: 0.0
    z: -4.6869461263295324
    w: 1.0
---
header:
  stamp:
    sec: 1771885250
    nanosec: 259392869
  frame_id: ''
pose:
  position:
    x: 0.11716840883028061
    y: 0.0268703611419796
    z: 0.0
  orientation:
    x: 0.0
    y: 0.0
    z: -4.6869580477202435
    w: 1.0
---
header:
  stamp:
    sec: 1771885250
    nanosec: 262079549
  frame_id: ''
pose:
  position:
    x: 0.117168219886447
    y: 0.026870356328457405
    z: 0.0
  orientation:
    x: 0.0
    y: 0.0
    z: -4.686961122072523
    w: 1.0
---
header:
  stamp:
    sec: 1771885250
    nanosec: 263011589
  frame_id: ''
pose:
  position:
    x: 0.11716815790016798
    y: 0.026870354749465485
    z: 0.0
  orientation:
    x: 0.0
    y: 0.0
    z: -4.686962130666672
    w: 1.0
---
header:
  stamp:
    sec: 1771885250
    nanosec: 273068639
  frame_id: ''
pose:
  position:
    x: 0.1171679148257329
    y: 0.02687034855836575
    z: 0.0
  orientation:
    x: 0.0
    y: 0.0
    z: -4.686966085790878
    w: 1.0
---
header:
  stamp:
    sec: 1771885250
    nanosec: 275754329
  frame_id: ''
pose:
  position:
    x: 0.1171678552555827
    y: 0.026870347041309032
    z: 0.0
  orientation:
    x: 0.0
    y: 0.0
    z: -4.686967055071435
    w: 1.0
---
header:
  stamp:
    sec: 1771885250
    nanosec: 281429369
  frame_id: ''
pose:
  position:
    x: 0.11716750761283107
    y: 0.02687033818950559
    z: 0.0
  orientation:
    x: 0.0
    y: 0.0
    z: -4.686972711651466
    w: 1.0
---
header:
  stamp:
    sec: 1771885250
    nanosec: 290168099
  frame_id: ''
pose:
  position:
    x: 0.11716745126787172
    y: 0.026870336755074498
    z: 0.0
  orientation:
    x: 0.0
    y: 0.0
    z: -4.686973628453946
    w: 1.0
---
header:
  stamp:
    sec: 1771885250
    nanosec: 306075329
  frame_id: ''
pose:
  position:
    x: 0.11716706915248469
    y: 0.02687032702897164
    z: 0.0
  orientation:
    x: 0.0
    y: 0.0
